City_ID,City,Country,Max Temp,Current Description,Lat,Lng,Hotel Name
0,Ribeira Grande,PT,77.4,scattered clouds,38.5167,-28.7,Quinta da Meia Eira
2,Hilo,US,84.27,moderate rain,19.7297,-155.09,Hilo Hawaiian Hotel
9,Yellowknife,CA,68.56,broken clouds,62.456,-114.3525,The Explorer Hotel
10,Guadix,ES,82.45,clear sky,37.2993,-3.1392,Hotel YIT Abentofail
12,Thompson,CA,64.56,broken clouds,55.7435,-97.8558,Burntwood Hotel
13,Lompoc,US,84.02,few clouds,34.6391,-120.4579,"Holiday Inn Express Lompoc, an IHG Hotel"
18,Veliki Preslav,BG,69.51,clear sky,43.1667,26.8167,семеен хотел Преслав
20,Carnarvon,AU,66.69,broken clouds,-24.8667,113.6333,Hospitality Carnarvon
22,San Pedro,PH,78.33,overcast clouds,14.35,121.0167,Palines Apartment and Guesthouse
26,Atuona,PF,77.25,light rain,-9.8,-139.0333,Villa Enata
27,Barrhead,GB,67.01,overcast clouds,55.7992,-4.3929,The Gleniffer
28,Kapaa,US,80.92,few clouds,22.0752,-159.319,Sheraton Kauai Coconut Beach Resort
34,Bengkulu,ID,75.13,overcast clouds,-3.8004,102.2655,Grage Hotel Bengkulu
35,Ponta Do Sol,PT,75.72,clear sky,32.6667,-17.1,Hotel do Campo
36,Nouadhibou,MR,76.98,few clouds,20.931,-17.0347,El Medina
37,Nikolskoye,RU,67.91,few clouds,59.7035,30.7861,Tourist House - Sablino
38,Gat,IL,80.82,clear sky,31.61,34.7642,OlusHome
40,Harper,LR,74.93,broken clouds,4.375,-7.7169,Screensaver
41,Nanakuli,US,84.15,few clouds,21.3906,-158.1547,Camp Pālehua
42,Mathathane,BW,64.65,clear sky,-22.2687,28.7495,Selepswe Resort
45,Rikitea,PF,72.25,clear sky,-23.1203,-134.9692,People ThankYou
46,Chuy,UY,63.05,broken clouds,-33.6971,-53.4616,Nuevo Hotel Plaza
49,Butaritari,KI,81.88,few clouds,3.0707,172.7902,Isles Sunset Lodge
50,Bandarbeyla,SO,76.59,scattered clouds,9.4942,50.8122,JABIR HOTEL
52,Souillac,MU,70.18,scattered clouds,-20.5167,57.5167,Shanti Maurice Resort & Spa
53,Kaabong,UG,69.33,overcast clouds,3.4836,34.1492,Madona Guest House Kaabong
54,Tura,IN,74.07,moderate rain,25.5198,90.2201,Hotel RIKMAN Continental
59,Salalah,OM,77.4,broken clouds,17.0151,54.0924,"HAMDAN PLAZA HOTEL SALALAH, an HTG Hotel"
60,Maceio,BR,78.24,few clouds,-9.6658,-35.7353,Hotel Ponta Verde Maceió
64,Biak,ID,75.07,broken clouds,-0.9131,122.8766,Penginapan Kim
66,Vila Franca Do Campo,PT,72.01,overcast clouds,37.7167,-25.4333,Pestana Bahia Praia
67,Puerto Ayora,EC,71.06,overcast clouds,-0.7393,-90.3518,Finch Bay Galapagos Hotel
68,Hasaki,JP,72.28,overcast clouds,35.7333,140.8333,Inubosaki Kanko Hotel
71,Kropotkin,RU,65.41,broken clouds,45.4375,40.5756,Hotel Europe Kropotkin
72,Imbituba,BR,66.09,clear sky,-28.24,-48.6703,Praia Hotel Imbituba
75,Saint-Philippe,RE,69.39,light rain,-21.3585,55.7679,Le four à pain
76,Karwar,IN,77.79,overcast clouds,14.8,74.1333,Netalco Connects
79,Cabo San Lucas,MX,82.51,broken clouds,22.8909,-109.9124,Hotel Tesoro Los Cabos
80,Isangel,VU,76.01,clear sky,-19.55,169.2667,Tanna Lodge
82,Hami,CN,84.56,clear sky,42.8,93.45,Laoyutang Resort
85,Baruun-Urt,MN,64.56,light rain,46.6806,113.2792,Ахмадын амралт сувилал
87,Matara,LK,78.31,overcast clouds,5.9485,80.5353,Amaloh Boutique Resort
88,Vila Velha,BR,78.75,few clouds,-20.3297,-40.2925,Hotel Vitória Palace
91,Arraial Do Cabo,BR,72.46,clear sky,-22.9661,-42.0278,Pousada Porto Praia
92,Dingle,PH,77.31,overcast clouds,10.9995,122.6711,SEGAYA PROPERTY
95,Vaini,TO,69.96,scattered clouds,-21.2,-175.2,Keleti Beach Resort
99,Yangjiang,CN,80.26,clear sky,21.85,111.9667,HUALUXE Yangjiang City Center
101,Rocky Mountain House,CA,71.64,clear sky,52.3668,-114.9188,Walking Eagle Inn & Lodge
102,Torbay,CA,83.17,broken clouds,47.6666,-52.7314,Gallows Cove
109,Ust-Nera,RU,63.16,overcast clouds,64.5667,143.2,Hotel Ust-Nera
110,Hihya,EG,76.44,clear sky,30.6713,31.588,مضيفة المركز
112,Namibe,AO,63.91,broken clouds,-15.1961,12.1522,Hotel Chik Chik Namibe
114,Mahebourg,MU,70.25,scattered clouds,-20.4081,57.7,Shandrani Beachcomber Resort & Spa
117,Gazanjyk,TM,81.19,clear sky,39.2446,55.5154,Railway motel
118,Salinopolis,BR,81.18,overcast clouds,-0.6136,-47.3561,Salinas Park Resort Maçarico AP101
121,Georgetown,MY,79.95,scattered clouds,5.4112,100.3354,Cititel Penang
123,Goderich,CA,75.88,few clouds,43.7501,-81.7165,Harmony Inn
124,Chabahar,IR,83.08,broken clouds,25.2919,60.643,هتل گدروشیا
128,Naze,JP,76.12,overcast clouds,28.3667,129.4833,Shishime Hotel
129,Meulaboh,ID,76.53,overcast clouds,4.1363,96.1285,Kost Pria
130,Huarmey,PE,66.33,scattered clouds,-10.0681,-78.1522,Hotel Miramar
132,Tommot,RU,67.41,light rain,58.9564,126.2925,Gostinitsa Tommot
133,Desesti,RO,77.88,overcast clouds,47.7667,23.85,Casa Calina
135,Tshikapa,CD,83.75,broken clouds,-6.4167,20.8,Tatem beach
137,Hithadhoo,MV,81.25,overcast clouds,-0.6,73.0833,Scoop Guest House
138,Marawi,PH,69.1,light rain,7.9986,124.2928,Derogongan Residence
140,Powell,US,84.29,clear sky,40.1578,-83.0752,The Brig
142,Saint-Francois,FR,71.04,clear sky,46.4154,3.9054,Manoir Du Bonheur
143,Port-Cartier,CA,65.08,broken clouds,50.0334,-66.8654,Le Q'Artier
144,Maruim,BR,78.76,overcast clouds,-10.7375,-37.0817,Pousada Acauã Do Posto Br
145,Castro,BR,66.87,overcast clouds,-24.7911,-50.0119,CHACARA BAILLY
151,Shimoda,JP,74.1,overcast clouds,34.6667,138.95,Shimoda Tokyu Hotel
154,Paine,CL,72.84,scattered clouds,-33.8167,-70.75,Hotel El Almendro by DOT Light
157,Muroto,JP,77.36,overcast clouds,33.2833,134.15,Oota Ryokan
158,Hay River,CA,73.49,clear sky,60.8156,-115.7999,Ptarmigan Inn
159,Ornskoldsvik,SE,61.75,overcast clouds,63.2909,18.7153,ファーストホテル スタット
165,Dwarka,IN,81.82,moderate rain,22.2394,68.9678,Hotel Narayan Avezika Comfort
166,Bunia,CD,65.59,few clouds,1.5667,30.25,Gold Star International Hotel
167,Peniche,PT,70.09,clear sky,39.3558,-9.3811,Hotel Star inn Peniche
168,Santa Vitoria,BR,84.88,few clouds,-18.8386,-50.1214,Center Hotel
169,Gizo,SB,81.68,light rain,-8.103,156.8419,Imagination Island
171,Missoula,US,79.65,clear sky,47.0166,-113.8009,Gold Creek Cabin
174,Lasa,IT,66.99,overcast clouds,46.6166,10.7002,Pension Feldgärtenhof
175,Nabire,ID,74.19,overcast clouds,-3.3667,135.4833,Hotel Nusantara I
178,Ashtabula,US,81.45,overcast clouds,41.7001,-80.7665,DFC Mobile Home Park & Sales
181,Avarua,CK,73.13,overcast clouds,-21.2078,-159.775,Paradise Inn
182,Talnakh,RU,67.21,overcast clouds,69.4865,88.3972,Talnakh Hotel
183,Atar,MR,83.35,moderate rain,20.5169,-13.0499,Oumou Elghoura
184,Half Moon Bay,US,83.53,mist,37.4636,-122.4286,"The Ritz-Carlton, Half Moon Bay"
188,Los Llanos De Aridane,ES,72.23,few clouds,28.6585,-17.9182,Valle Aridane
191,Mweka,CD,71.71,few clouds,-4.85,21.5667,Guest House Boshab
195,Palu,ID,74.53,broken clouds,-0.8917,119.8707,Hotel Santika Palu
197,Ochamchira,GE,64.27,clear sky,42.7121,41.4721,Resort on Papaskiri 76
198,Ambilobe,MG,65.35,few clouds,-13.2,49.05,Hôtel & Restaurant DIANA Ambilobe
202,Muros,ES,68.38,clear sky,42.7762,-9.0603,Apartment Av. Castelao
203,Miri,MY,78.94,scattered clouds,4.4148,114.0089,"Mega Hotel, Miri"
204,Sao Jose Da Coroa Grande,BR,76.26,scattered clouds,-8.8978,-35.1478,Crôa Mares Hotel
205,Nemuro,JP,60.06,overcast clouds,43.3236,145.575,Hotel Nemuro Kaiyoutei
207,Kotovo,RU,64.69,broken clouds,50.3211,44.8012,Voyazh
208,Kaya,BF,83.01,broken clouds,13.0917,-1.0844,Maison de l'appelé
209,Bambous Virieux,MU,70.21,scattered clouds,-20.3428,57.7575,Casa Tia Villa
210,Sioux Lookout,CA,63.73,overcast clouds,50.1001,-91.917,Knobby's Fly-In Camps
213,Luganville,VU,76.93,clear sky,-15.5333,167.1667,The Espiritu Hotel
215,Tacoronte,ES,80.92,few clouds,28.4769,-16.4102,Casa Laurel
216,Cervo,ES,67.96,clear sky,43.6702,-7.4101,Hotel Spa Galatea
219,Bereda,ES,61.27,clear sky,43.2686,-7.5406,Pazo de Verdes
220,Bani Walid,LY,78.39,clear sky,31.7566,13.9942,منزل مفتاح محمد الزلبي
221,Dawson Creek,CA,77.22,broken clouds,55.7666,-120.2362,Peace Villa Motel
222,Atambua,ID,64.24,overcast clouds,-9.1061,124.8925,Kost Alfa Flat
224,Gornoye Loo,RU,67.78,clear sky,43.7129,39.6049,«ВатерЛоо» гостиница
225,Porto Walter,BR,84.6,overcast clouds,-8.2686,-72.7439,Hotel Silva
226,Lianzhou,CN,77.58,clear sky,24.7811,112.3825,Qingcheng Tourism Industry
227,Morden,CA,74.08,overcast clouds,49.1919,-98.1014,Morden Motor Inn
228,Haines Junction,CA,62.55,overcast clouds,60.7522,-137.5108,Parkside Inn
229,Sao Filipe,CV,78.01,light rain,14.8961,-24.4956,Hotel Xaguate
230,Cidreira,BR,63.21,scattered clouds,-30.1811,-50.2056,Hotel Castelo
231,Axim,GH,75.43,broken clouds,4.8699,-2.2405,Axim Beach Resort And Spa
234,Borgarnes,IS,62.82,overcast clouds,64.5383,-21.9206,Hotel Hafnarfjall
235,Liwale,TZ,64.47,scattered clouds,-9.7667,37.9333,Tumaini Tulivu Lodge
236,Kirakira,SB,78.03,scattered clouds,-10.4544,161.9205,SanBiz Lodge
237,Patiya,BD,75.49,overcast clouds,22.2931,91.9762,Sorry
242,Boralday,KZ,76.86,few clouds,43.3578,76.8594,"Zhetysu, Too Zhetysu"
245,Wewak,PG,79.36,scattered clouds,-3.5534,143.6268,In Wewak Boutique Hotel
246,Kholm-Zhirkovskiy,RU,62.4,clear sky,55.5189,33.4731,Gostinitsa Kholm
247,Brzesko,PL,69.58,moderate rain,49.9691,20.6061,Hotel Planeta
248,Vao,NC,74.17,overcast clouds,-22.6667,167.4833,Hotel Kou-Bugny
249,Bonavista,CA,66.6,broken clouds,48.6499,-53.1147,Sweet Sharons bnb
251,Lashio,MM,67.73,overcast clouds,22.9333,97.75,Hotel CF Lashio - Burmese Only
252,Carutapera,BR,81.77,overcast clouds,-1.195,-46.02,Lidera
256,Muisne,EC,75.6,overcast clouds,0.6,-80.0333,Quinta Samay
258,Arshan,RU,62.98,scattered clouds,46.2732,44.22,Guest House The Green Village
259,Hambantota,LK,79.25,overcast clouds,6.1241,81.1185,Bungalow 63
260,Faanui,PF,79.47,clear sky,-16.4833,-151.75,Bora-Bora Pearl Beach Resort & Spa
261,Neyshabur,IR,82.69,clear sky,36.2133,58.7958,Amiran Hotel & Commercial Complex
262,Wanning,CN,79.27,clear sky,18.8003,110.3967,Paradise Hotel
265,Samarai,PG,79.3,broken clouds,-10.6167,150.6667,Nuli Sapi
266,Campbell River,CA,71.6,few clouds,50.0163,-125.2446,Anchor Inn & Suites
267,Sola,VU,79.97,clear sky,-13.8833,167.55,Leumerus Bungalows
268,Padang,ID,76.89,overcast clouds,-0.9492,100.3543,Mercure Padang
270,Puerto Ayacucho,VE,84.88,light rain,5.6639,-67.6236,Posada Turistica Manapiare
271,Vinh,VN,77.4,clear sky,18.6667,105.6667,Vuong Hoan 2
272,Hobyo,SO,76.42,few clouds,5.3505,48.5268,Iftin hotel hobyo
274,Khromtau,KZ,69.53,broken clouds,50.2503,58.4347,Придорожный сервис Кең Дала
277,Galle,LK,78.96,broken clouds,6.0367,80.217,Amangalla
279,Acajutla,SV,83.73,broken clouds,13.5928,-89.8275,Laureles
283,Dauphin,CA,66.34,overcast clouds,51.1494,-100.0502,Canway Inn & Suites
284,Karratha,AU,62.11,clear sky,-20.7377,116.8463,ibis Styles Karratha
285,Lorengau,PG,81.03,few clouds,-2.0226,147.2712,Lorengau Harbourside Hotel
286,Kinsale,IE,62.28,overcast clouds,51.7075,-8.5306,Actons Hotel Kinsale
287,Kavieng,PG,81.72,clear sky,-2.5744,150.7967,Nusa Island Retreat
288,Watsa,CD,64.17,light rain,3.0372,29.5355,Hôtel Le Pacifique
292,Kihei,US,80.89,clear sky,20.785,-156.4656,Maui Sunset
294,Iwanai,JP,65.59,overcast clouds,42.9744,140.5089,いわない高原ホテル
296,Savannah Bight,HN,82.92,overcast clouds,16.45,-85.85,Villa on Dunbar Rock
298,Solone,UA,66.07,few clouds,48.2081,34.8721,"Канализация , слив"
299,Asosa,ET,61.72,light rain,10.0667,34.5333,Blendana Hotel Assosa
303,Corby,GB,71.83,overcast clouds,52.4964,-0.6894,Hampton by Hilton Corby/Kettering
305,Harda,IN,74.41,moderate rain,22.3333,77.1,OYO 67581 Samaroh Parisar
309,Auki,SB,76.84,few clouds,-8.7676,160.7034,Auki Motel
311,Lagoa,PT,73.45,few clouds,39.05,-27.9833,Casa Das Faias
313,Labuhan,ID,75.72,broken clouds,-6.8844,112.2051,DoubleFAG
316,Guerrero Negro,MX,75.74,clear sky,27.9769,-114.0611,"Casa Laguna, Bed & Breakfast"
323,Faya,SA,67.48,light rain,18.3851,42.4509,املاك خالد الشعشوع
325,Champasak,LA,72.16,broken clouds,14.75,106.0,Kiat Ngong Wetland BUNGALOW
326,Soubre,CI,74.55,overcast clouds,5.7856,-6.6083,Lynd Hotels Soubre
328,Almas,RO,76.95,few clouds,46.2833,22.2333,Cabana Ispas - Rădești
329,Nampula,MZ,62.11,clear sky,-15.1165,39.2666,Ruby Backpackers
330,Touros,BR,78.08,broken clouds,-5.1989,-35.4608,INN NEW HORIZON
337,Ostroda,PL,61.56,broken clouds,53.6967,19.9649,Hotel Willa Port
342,Izumo,JP,72.61,overcast clouds,35.3667,132.7667,Toyoko-Inn Izumoshi ekimae
344,Kieta,PG,77.99,clear sky,-6.2167,155.6333,Uruna Bay Retreat
345,Phan Thiet,VN,75.85,overcast clouds,10.9333,108.1,Hotel Saigon-PT
346,Kinwat,IN,74.46,moderate rain,19.6333,78.2,Iqbal Lodge
349,Datong,CN,68.45,clear sky,40.0936,113.2914,Holiday Inn Datong City Centre
350,Kulhudhuffushi,MV,81.48,overcast clouds,6.6221,73.07,Haajy Guest House 1
353,Saint-Georges,GD,81.61,clear sky,12.0564,-61.7485,Radisson Grenada Beach Resort
354,Ziyang,CN,76.91,light rain,29.2497,117.8547,Wuyuan Great Wall Hotel
355,Whitehorse,CA,64.09,overcast clouds,60.7161,-135.0538,The Sternwheeler Hotel & Conference Centre
356,Kuusamo,FI,60.84,clear sky,65.9667,29.1833,Hotel Kuusanka
357,Tarbes,FR,71.71,clear sky,43.25,0.1667,Quelle Vue (Gite Rural)
360,Fortuna,US,66.92,scattered clouds,40.5982,-124.1573,Super 8 by Wyndham Fortuna
367,Pochutla,MX,80.51,overcast clouds,15.7432,-96.4661,Hotel Posada San Jose
372,Ikom,NG,71.8,overcast clouds,5.9667,8.7063,Ebenezer Beim excellence hotel
373,Ternate,ID,79.75,few clouds,0.8,127.4,Sahid Bela Ternate Hotel
374,Akcakoca,TR,68.4,clear sky,41.0866,31.1162,Turkuaz Beach Otel
375,Caala,AO,63.55,few clouds,-12.8525,15.5606,Adymuzik Oficial
378,Buala,SB,78.96,clear sky,-8.145,159.5921,Maringe Lagoon Lodge
383,Bairiki,KI,81.34,scattered clouds,1.3292,172.9752,Tarawa Boutique Hotel
384,Tyup,KG,66.78,clear sky,42.7276,78.3648,"Yurtochnyy Gorodok ""Ybrayym-Nur"""
385,Pathanamthitta,IN,76.73,overcast clouds,9.2667,76.7833,Vijaya Residency
386,Voskresenskoye,RU,67.93,overcast clouds,56.8381,45.4317,AOM OTABIXA ВОСКРЕСЕНСКОЕ ОДМОСКОВЬЕ
388,Beyneu,KZ,82.08,scattered clouds,45.3167,55.2,NUR
390,Zarubino,RU,63.93,overcast clouds,42.63,131.0922,Okean
391,Cockburn Town,TC,82.17,few clouds,21.4612,-71.1419,Osprey Beach Hotel
392,Norman Wells,CA,60.96,light rain,65.282,-126.8329,Heritage Hotel
393,Carballo,ES,76.42,clear sky,43.213,-8.691,Pazo do Souto
394,Pisco,PE,63.86,broken clouds,-13.7,-76.2167,Hotel San Isidro Oficial
395,Niitsu,JP,66.9,overcast clouds,37.8,139.1167,ビジネスホテル 新光
396,Lang Son,VN,73.56,clear sky,21.8333,106.7333,Khai Nga Hotel
397,Paris,FR,75.47,overcast clouds,48.8534,2.3488,Britannique Hotel - Paris Centre
399,Savelugu,GH,71.98,overcast clouds,9.6244,-0.8253,Yoo Naa's Palace
400,San Jeronimo,PE,65.68,overcast clouds,-11.9472,-75.2829,Tuki Llajta Pueblo Bonito Eco Lodge
403,Portland,US,77.99,clear sky,45.5234,-122.6762,Embassy Suites by Hilton Portland Downtown
407,Katsuura,JP,77.36,overcast clouds,35.1333,140.3,Katsuura Hotel Mikazuki
408,Sao Joao Da Barra,BR,72.84,clear sky,-21.6403,-41.0511,Pousada Porto De Canoas
409,Kasongo,CD,82.74,overcast clouds,-4.45,26.6667,Guest Hôtel
410,College,US,62.1,broken clouds,64.8569,-147.8028,Pike's Waterfront Lodge
411,Houma,US,77.0,broken clouds,29.5958,-90.7195,Courtyard by Marriott Houma
420,Asfi,MA,78.55,overcast clouds,32.2994,-9.2372,Hôtel Abda
421,Planaltina,BR,77.95,clear sky,-15.4528,-47.6142,Afrodite Motel Planaltina GO
422,Hibbing,US,76.39,overcast clouds,47.4272,-92.9377,Mitchell-Tappan House - Carriage House Rentals
423,Limbang,MY,73.67,overcast clouds,4.75,115.0,Purnama Hotel
426,Hereford,GB,68.05,overcast clouds,52.0568,-2.7148,The Green Dragon Hotel
427,Bone,DE,68.9,clear sky,51.9669,12.1396,Sporthotel Wallwitz
428,Ambovombe,MG,67.39,few clouds,-25.1667,46.0833,RELAHARA
429,Kapit,MY,73.17,overcast clouds,2.0167,112.9333,Hotel Meligai Kapit
430,Puerto Escondido,MX,83.77,overcast clouds,15.85,-97.0667,Aldea del Bazar Hotel and Spa
432,Salas,ES,67.77,clear sky,43.4118,-6.2602,Hotel Castillo Valdes Salas
434,That Phanom,TH,76.8,few clouds,16.9364,104.7104,ณ ธาตุพนมเพลส Na That Panom Place Hotel
435,Sokoni,TZ,75.29,scattered clouds,-6.4333,39.55,Ujamaa Beach Resort
436,Tepla,CZ,64.31,scattered clouds,49.98,12.8643,Penzion Plzenka
437,Luang Prabang,LA,72.5,broken clouds,19.8856,102.1347,The Apsara
439,Halkirk,CA,70.9,few clouds,52.2834,-112.1518,"Halkirk Hotel, Bar & Restaurant"
441,Awjilah,LY,84.27,clear sky,29.1081,21.2869,المنزل
442,Shelburne,CA,84.6,scattered clouds,44.0787,-80.2041,The Retreat at the Farm
443,Kailua,US,81.64,few clouds,21.4022,-157.7394,Sheffield House Bed & Breakfast
444,Kahului,US,82.98,clear sky,20.8947,-156.47,Maui Seaside Hotel
447,Bocas Del Toro,PA,82.29,broken clouds,9.3333,-82.25,Hotel Bocas del Toro
450,Tabuk,PH,75.2,overcast clouds,17.4189,121.4443,Golden Berries Hotel and Convention
451,Aldan,RU,65.43,broken clouds,58.6031,125.3894,Aldan Guest House
453,Quatre Cocos,MU,69.76,light rain,-20.2078,57.7625,Sunrise Attitude Hotel
455,Kalach-Na-Donu,RU,61.99,overcast clouds,48.691,43.5264,Hotel Laguna
457,Planadas,CO,75.13,light rain,3.197,-75.6451,Coffee Hotel Planadas
458,Swan River,CA,60.73,overcast clouds,52.1058,-101.2676,Super 8 by Wyndham Swan River MB
459,Kabompo,ZM,62.73,few clouds,-13.5927,24.2008,Big Tree
460,Santa Rosa,PH,78.69,overcast clouds,14.3122,121.1114,Erlyn’s Sta Rosa City Home
462,Honiara,SB,76.21,scattered clouds,-9.4333,159.95,Heritage Park Hotel
463,Skelleftea,SE,61.0,overcast clouds,64.7507,20.9528,Quality Hotel Skellefteå Stadshotell
467,Algiers,DZ,80.64,clear sky,36.7525,3.042,Sofitel Algiers Hamma Garden
468,Morondava,MG,71.89,clear sky,-20.2833,44.2833,La Case Bambou
469,Changping,CN,74.84,clear sky,40.2186,116.2197,Huachang Hotel
471,Tiarei,PF,82.42,light rain,-17.5333,-149.3333,Le Rocher de Tahiti
472,Hirara,JP,84.81,broken clouds,24.8,125.2833,Hotel Atoll Emerald Miyakojima
474,Denpasar,ID,76.71,scattered clouds,-8.65,115.2167,OYO 3156 Hotel Warta 2
478,Tartagal,AR,84.63,broken clouds,-22.5164,-63.8013,Almuñecar Hotel
479,High Level,CA,76.23,overcast clouds,58.5169,-117.136,Days Inn by Wyndham High Level
480,Waingapu,ID,69.87,few clouds,-9.6567,120.2641,Pondok Wisata Elim
482,Marshfield,US,83.28,scattered clouds,44.6689,-90.1718,"Holiday Inn Conference Ctr Marshfield, an IHG Hotel"
487,Fort Nelson,CA,67.62,light rain,58.8053,-122.7002,The Fort Nelson Hotel
489,Negombo,LK,80.65,scattered clouds,7.2083,79.8358,Hotel Sunset Beach
491,Eyl,SO,77.0,overcast clouds,7.9803,49.8164,Amiin Hotel
493,Namie,JP,74.71,overcast clouds,37.4833,141.0,いこいの村なみえ
495,Rocha,UY,65.44,overcast clouds,-34.4833,-54.3333,Hotel Arrarte
496,Povenets,RU,63.0,moderate rain,62.8487,34.8262,Eko Otel' Bol'shaya Medveditsa
497,Kismayo,SO,75.67,scattered clouds,-0.3582,42.5454,Agan-Hotel
500,Makokou,GA,70.79,light rain,0.5738,12.8642,Hôtel
501,Okhtyrka,UA,63.73,clear sky,50.3104,34.8988,У нас як вдома
502,Yarada,IN,80.92,mist,17.65,83.2667,Yarada Jungle Beach Resorts
507,Xuddur,SO,75.02,broken clouds,4.1213,43.8894,Banjanay Hotel
509,Madinat Sittah Uktubar,EG,83.26,clear sky,29.8167,31.05,Happy Kennel Academy
510,Kavaratti,IN,81.1,broken clouds,10.5669,72.642,Green leaf
511,Dumai,ID,73.94,moderate rain,1.6833,101.45,Grand Zuri Dumai
515,Tarakan,ID,80.29,scattered clouds,3.3,117.6333,RedDoorz Syariah near Taman Berlabuh Tarakan
517,Whitecourt,CA,75.69,clear sky,54.1502,-115.6855,Super 8 by Wyndham Whitecourt
519,Totness,SR,80.82,overcast clouds,5.8833,-56.3167,STAATS LOGEERGEBOUW TOTNESS
524,Yelandur,IN,69.94,scattered clouds,12.0667,77.0333,Nisarga Home Stay
525,New Ulm,US,79.12,clear sky,44.3125,-94.4605,Best Western Plus New Ulm
526,Margate,GB,68.88,overcast clouds,51.3813,1.3862,Premier Inn Margate hotel
527,Owando,CG,73.74,overcast clouds,-0.4819,15.8999,Exaunel Hotel Owando
531,Piacabucu,BR,75.56,broken clouds,-10.4056,-36.4344,Piaçabuçu News
532,Weligama,LK,78.44,broken clouds,5.9667,80.4167,Weligama Bay Resort
537,Mahanoro,MG,66.45,light rain,-19.9,48.8,BUNGALOW MAHAMANINA
538,Gemena,CD,69.82,scattered clouds,3.25,19.7667,Hôtel Goshen
539,Khasan,RU,65.5,overcast clouds,42.4308,130.6434,Fangchuan Self-Driving Camp
540,Mindelo,CV,80.15,broken clouds,16.8901,-24.9804,Hotel Gaudi
542,Balkanabat,TM,84.9,clear sky,39.5108,54.3671,Nebitchi Hotel
544,Jejuri,IN,70.39,overcast clouds,18.2833,74.1667,Hotel Malhargad
546,Keskin,TR,64.83,clear sky,39.6731,33.6136,Keskin İlçe Müftülüğü İrşat Evi
547,Acarau,BR,81.82,scattered clouds,-2.8856,-40.12,castelo pizzaria
548,Wasilla,US,63.01,light rain,61.5814,-149.4394,Alaska's Select Inn Wasilla
549,Lethem,GY,81.46,moderate rain,3.3803,-59.7968,Savannah Inn
550,Calama,CL,70.29,clear sky,-22.4667,-68.9333,Park Hotel Calama
551,Ewa Beach,US,82.35,scattered clouds,21.3156,-158.0072,Base Lodging
552,Oliveira Dos Brejinhos,BR,82.94,overcast clouds,-12.3169,-42.8961,Hotel Paraiso
553,Kamen-Rybolov,RU,62.76,moderate rain,44.7481,132.0403,"The recreation center ""Olimp"""
558,Jiuquan,CN,72.64,clear sky,39.7432,98.5174,Jiuquan Hotel
560,Carhuaz,PE,67.39,light rain,-9.2819,-77.6447,Montaña Jazz
563,Conde,BR,78.26,broken clouds,-7.2597,-34.9075,Pousada Beija Flor
566,Alexandria,EG,78.1,clear sky,31.2156,29.9553,Royal Crown Hotel
568,Port-Gentil,GA,73.6,overcast clouds,-0.7193,8.7815,Fengshui Residence
569,Pemba,MZ,74.86,clear sky,-12.974,40.5178,Guesthouse Samotina
570,San Ignacio,BZ,79.66,overcast clouds,17.1561,-89.0714,Rainforest Haven Inn
571,My Tho,VN,75.9,overcast clouds,10.35,106.35,Sông Tiền Annex Hotel
572,Bassano,CA,70.65,few clouds,50.7834,-112.4685,Imperial Hunter Hotel
573,Bismarck,US,82.24,clear sky,46.8083,-100.7837,Bismarck Hotel and Conference Center
574,Artigas,UY,74.01,overcast clouds,-30.4,-56.4667,Hotel Casino San Eugenio del Cuareim
575,Beipiao,CN,63.07,clear sky,41.7919,120.7792,Beipiao Hotel
576,Praia,CV,79.34,broken clouds,14.9215,-23.5087,LT Aparthotel
577,Alofi,NU,71.49,broken clouds,-19.0595,-169.9187,Taloa Heights
578,Santa Maria,BR,71.71,overcast clouds,-29.6842,-53.8069,Hotel Morotin
579,Qui Nhon,VN,76.6,clear sky,13.7667,109.2333,Seagull Hotel
581,Mattru,SL,74.7,overcast clouds,7.6244,-11.8332,"Mondkor Town, Bagbo Chiefdom, Bo District"
582,Eskil,TR,70.54,clear sky,38.4017,33.4131,Eskil Öğretmen Evi
583,Asau,RO,72.52,few clouds,46.4333,26.4,Casa Mika Ciobanus
585,Hole Narsipur,IN,68.07,overcast clouds,12.7828,76.2431,Vibhavi upahar and Cafe
586,Inirida,CO,79.72,overcast clouds,3.8653,-67.9239,Fuente del Guania Hotel de Lujo
587,Medeiros Neto,BR,77.79,clear sky,-17.3739,-40.2206,Pousada & Restaurante Visgueira
588,Chicama,PE,61.34,scattered clouds,-7.8447,-79.1469,Balihai Bungalows
589,Askino,RU,65.21,overcast clouds,56.0901,56.5783,Uyut
590,Ankang,CN,69.69,clear sky,32.68,109.0172,安琪酒店
591,Huejuquilla El Alto,MX,79.59,scattered clouds,22.6,-103.8667,Hotel Huexuquillan
593,Northam,GB,65.39,overcast clouds,51.0333,-4.2167,Durrant House Hotel
596,Jaisalmer,IN,83.77,overcast clouds,26.9147,70.9181,Hotel Fifu
597,Wakkanai,JP,60.76,overcast clouds,45.4094,141.6739,Hyōsetsu-sō
600,Tsybli,UA,69.78,clear sky,49.9948,31.5628,Готель Вотчина
601,Mersing,MY,78.03,overcast clouds,2.4312,103.8405,Timotel Hotel
602,Aras,ES,70.88,clear sky,42.5617,-2.356,Jardines de Viana Spa
603,Port Hardy,CA,60.8,few clouds,50.6996,-127.4199,Airport Inn-Port Hardy
604,Manado,ID,74.93,clear sky,1.487,124.8455,Aryaduta Hotel
605,Martapura,ID,75.29,broken clouds,-3.4167,114.85,Montana Hotel Syariah
606,Aquiraz,BR,82.49,scattered clouds,-3.9014,-38.3911,Pousada Rua Camurupim
607,Bojnurd,IR,73.67,clear sky,37.4747,57.329,Hotel negin bojnourd
608,Mali Zvornik,RS,83.86,broken clouds,44.3734,19.1065,Хотел Видиковац
609,Casay,PH,79.75,overcast clouds,9.8204,123.5496,Blue Pot Family Resort
610,Monywa,MM,80.73,overcast clouds,22.1167,95.1333,Monywa Hotel
611,Benghazi,LY,80.24,clear sky,32.1167,20.0667,Tibesti Hotel
613,Kloulklubed,PW,75.7,light rain,7.0419,134.2556,Storyboard Beach Resort
614,Beira,MZ,64.49,few clouds,-19.8436,34.8389,Beira Terrace Hotel
615,Robertsport,LR,77.54,overcast clouds,6.7533,-11.3686,Kwepunha Retreat
617,Angoche,MZ,72.1,clear sky,-16.2325,39.9086,Guest House HESADA
618,Shelomi,IL,80.35,clear sky,33.0747,35.1461,"אכסניית אנ""א שלומי Hi Shlomi Hostel"
619,Gacko,BA,68.32,clear sky,43.1672,18.5353,Hotel Metohija
620,Narayangarh,IN,83.82,overcast clouds,30.4833,77.1333,Hotel Paris
624,Nauta,PE,82.36,overcast clouds,-4.5061,-73.5757,Amazon Exploring Expedition - Eretzen Tá Lodge
625,Mandalgovi,MN,62.82,overcast clouds,45.7625,106.2708,В.Ганбат
628,Porto Belo,BR,67.1,scattered clouds,-27.1578,-48.5531,Costa Verde Beach Hotel
631,Trat,TH,75.87,overcast clouds,12.5,102.5,สวนหนิง-อัศ
632,Tual,ID,78.71,overcast clouds,-5.6667,132.75,Grand Vilia Hotel
633,Dicabisagan,PH,78.28,overcast clouds,17.0818,122.4157,Nancy Montanes Bernardo
634,Neropolis,BR,83.28,clear sky,-16.4064,-49.2186,Pousada Recanto do Cerrado
635,Carauari,BR,83.32,overcast clouds,-4.8828,-66.8958,Hotel Fellip
636,Zhanaozen,KZ,74.55,light rain,43.3,52.8,K.korabay 28A
641,Karpathos,GR,75.16,clear sky,35.507,27.2132,Alex
644,Banda Aceh,ID,77.59,overcast clouds,5.5577,95.3222,OYO 884 Rumoh PMI Hotel
646,Camana,PE,63.21,broken clouds,-16.6228,-72.7111,Hostal Morales
647,Savannakhet,LA,76.77,scattered clouds,16.566,104.751,โรงแรม ริเวอร์ ฟร้อนท์ (Riverfront Hotel)
650,Rovaniemi,FI,62.01,clear sky,66.5,25.7167,Arctic City Hotel
651,Turukhansk,RU,60.19,overcast clouds,65.8167,87.9833,"ООО ""Туруханская пушнина"""
653,Izberbash,RU,73.45,few clouds,42.5696,47.8645,Ramina
654,Upata,VE,80.4,broken clouds,8.0086,-62.3989,Posada Villa Nela
656,Liepaja,LV,62.58,few clouds,56.5419,21.0367,Promenade Hotel
657,Tongchuan,CN,69.19,clear sky,35.0806,109.0897,Tongchuan Hotel
658,Nishihara,JP,83.86,scattered clouds,26.1842,127.7558,Minshuku Agaihama
660,Lata,PT,67.84,clear sky,40.1629,-8.3327,Casa Maquia
661,Impfondo,CG,72.19,light rain,1.6381,18.0667,Auberge La Place de Jules
662,Vangaindrano,MG,64.04,clear sky,-23.35,47.6,Hotel Fanilo
663,Champerico,GT,83.39,broken clouds,14.3,-91.9167,"Hotel y restaurante ""El Diamante"""
667,Yanji,CN,64.65,overcast clouds,42.9075,129.5078,Holiday Inn Changbaishan Suites
669,Sarh,TD,75.13,light rain,9.1429,18.3923,Domicile 1sur le goudron
671,Alekseyevka,RU,60.87,scattered clouds,50.6309,38.6903,Apartment on Ploshchad Pobedy
672,Pudozh,RU,65.01,overcast clouds,61.8099,36.5345,Guest-House na Transportnoy
673,Tigre,AR,62.55,mist,-34.426,-58.5796,Puerto Delta Apartamentos
674,Maracas,BR,68.05,overcast clouds,-13.4411,-40.4308,Pousada Vale Aprazível
676,Villazon,BO,64.09,clear sky,-22.0866,-65.5942,La Candelaria
680,Tezu,IN,78.6,overcast clouds,27.9167,96.1667,Circuit House
681,Durban,ZA,67.01,overcast clouds,-29.8579,31.0292,Hilton Durban
682,Nisia Floresta,BR,81.41,overcast clouds,-6.0911,-35.2086,Rancho Crepusculo
683,Pacific Grove,US,73.24,scattered clouds,36.6177,-121.9166,Lovers Point Inn
684,Garowe,SO,84.88,overcast clouds,8.4054,48.4845,Curubo Hotel
685,Lima,PE,64.54,broken clouds,-12.0432,-77.0282,Hotel Kamana
686,Panama City,PA,84.43,broken clouds,8.9936,-79.5197,Trump International Hotel & Tower Panama
689,Juegang,CN,72.73,scattered clouds,32.3174,121.1855,Rudong Y Hotel
690,Kudahuvadhoo,MV,82.78,overcast clouds,2.6708,72.8944,Niyama Private Islands Maldives
691,Khandyga,RU,62.64,clear sky,62.6667,135.6,Apel'sin
692,Saint-Pierre,RE,69.48,overcast clouds,-21.3393,55.4781,Alize Plage
693,Crewe,GB,67.84,overcast clouds,53.0979,-2.4416,Crewe Hall Hotel & Spa
694,Sibu,MY,72.68,broken clouds,2.3,111.8167,RH HOTEL (4 Star)
695,Quang Ngai,VN,74.75,clear sky,15.1167,108.8,Central Hotel
696,Chengde,CN,64.45,clear sky,40.9725,117.9361,Super 8 Hotel
